{"code":200,"currentTime":1532473478319,"data":{"limitExceeded":false,"list":[{"agencyId":"98","lat":47.6470785,"latSpan":0.06330499999999972,"lon":-122.296449,"lonSpan":0.07930600000000254},{"agencyId":"3","lat":47.230847499999996,"latSpan":0.31803900000000596,"lon":-122.4183065,"lonSpan":0.41413299999999253},{"agencyId":"97","lat":47.9477555,"latSpan":0.1356090000000023,"lon":-122.2443695,"lonSpan":0.12402300000000821},{"agencyId":"96","lat":47.616611000000006,"latSpan":0.009205999999998937,"lon":-122.34336049999999,"lonSpan":0.012896999999995273},{"agencyId":"1","lat":47.560728,"latSpan":0.743228000000002,"lon":-122.09015249999999,"lonSpan":0.8329389999999961},{"agencyId":"95","lat":47.974607000000006,"latSpan":1.3380679999999998,"lon":-122.851435,"lonSpan":1.0939520000000016},{"agencyId":"KMD","lat":47.557251,"latSpan":0.0926199999999966,"lon":-122.4019665,"lonSpan":0.12551099999998883},{"agencyId":"19","lat":47.093462,"latSpan":0.32068999999999903,"lon":-122.70123050000001,"lonSpan":0.5517929999999893},{"agencyId":"40","lat":47.532444,"latSpan":0.8850059999999971,"lon":-122.329459,"lonSpan":0.621138000000002},{"agencyId":"23","lat":47.613395499999996,"latSpan":0.02854099999999704,"lon":-122.3263055,"lonSpan":0.024529000000001133},{"agencyId":"99","lat":47.115176,"latSpan":0.09129599999999982,"lon":-122.5614875,"lonSpan":0.1564649999999972},{"agencyId":"29","lat":47.9387495,"latSpan":0.6799350000000004,"lon":-121.99284,"lonSpan":0.7837480000000028}],"references":{"agencies":[{"disclaimer":"","email":"","fareUrl":"","id":"98","lang":"en","name":"Seattle Children's Hospital","phone":"","privateService":false,"timezone":"America/Los_Angeles","url":"http://www.csched.com"},{"disclaimer":"","email":"","fareUrl":"","id":"3","lang":"EN","name":"Pierce Transit","phone":"(253)581-8000","privateService":false,"timezone":"America/Los_Angeles","url":"http://www.piercetransit.org"},{"disclaimer":"","email":"","fareUrl":"","id":"97","lang":"en","name":"Everett Transit","phone":"","privateService":false,"timezone":"America/Los_Angeles","url":"http://www.everetttransit.org/"},{"disclaimer":"","email":"","fareUrl":"","id":"96","lang":"EN","name":"SeattleCenterMonorail","phone":"2069052620","privateService":false,"timezone":"America/Los_Angeles","url":"http://www.seattlemonorail.com"},{"disclaimer":"","email":"","fareUrl":"","id":"1","lang":"EN","name":"Metro Transit","phone":"206-553-3000","privateService":false,"timezone":"America/Los_Angeles","url":"http://metro.kingcounty.gov"},{"disclaimer":"","email":"","fareUrl":"","id":"95","lang":"en","name":"Washington State Ferries","phone":"","privateService":false,"timezone":"America/Los_Angeles","url":"http://www.wsdot.wa.gov/ferries/"},{"disclaimer":"","email":"","fareUrl":"","id":"KMD","lang":"EN","name":"Kingcounty Marine Divison","phone":"206-684-1515","privateService":false,"timezone":"America/Los_Angeles","url":"http://www.kingcounty.gov/transportation/kcdot/Marine.aspx"},{"disclaimer":"","email":"","fareUrl":"","id":"19","lang":"en","name":"Intercity Transit","phone":"(360) 786-1881","privateService":false,"timezone":"America/Los_Angeles","url":"http://www.Intercitytransit.com"},{"disclaimer":"","email":"","fareUrl":"","id":"40","lang":"EN","name":"Sound Transit","phone":"1-888-889-6368","privateService":false,"timezone":"America/Los_Angeles","url":"http://www.soundtransit.org"},{"disclaimer":"","email":"","fareUrl":"","id":"23","lang":"EN","name":"City of Seattle","phone":"206-684-7623","privateService":false,"timezone":"America/Los_Angeles","url":"http://www.seattle.gov"},{"disclaimer":"","email":"","fareUrl":"","id":"99","lang":"EN","name":"GO Transit","phone":"+12539663939","privateService":false,"timezone":"America/Los_Angeles","url":"http://GOLewisMcChord.com"},{"disclaimer":"","email":"riders@commtrans.org","fareUrl":"","id":"29","lang":"en","name":"Community Transit","phone":"(800) 562-1375","privateService":false,"timezone":"America/Los_Angeles","url":"http://www.communitytransit.org/"}],"routes":[],"situations":[],"stops":[],"trips":[]}},"text":"OK","version":2}